city_id;city_name;city_latitude;city_longitude;country_id;state_id
000001;Albuquerque;35.110703;-106.609991;009;000071
000002;Anaheim;33.834492;-117.915638;009;000052
000003;Anchorage;61.216583;-149.899597;009;000050
000004;Arlington;32.735594;-97.10711;009;000079
000005;Atlanta;33.748547;-84.391502;009;000055
000006;Aurora;39.695833;-104.808056;009;000053
000007;Austin;30.264979;-97.746598;009;000079
000008;Bakersfield;35.366667;-119.016667;009;000052
000009;Baltimore;39.283333;-76.616667;009;000063
000010;Baton Rouge;30.449493;-91.093399;009;000062
000011;Birmingham;33.525;-86.813;009;000049
000012;Boise;43.615791;-116.201579;009;000057
000013;Boston;42.358056;-71.063611;009;000064
000014;Buffalo;42.887691;-78.879374;009;000072
000015;Chandler;33.302285;-111.840103;009;000051
000016;Charlotte;35.2237867;-80.8411413;009;000073
000017;Chesapeake;36.779591;-76.288376;009;000080
000018;Chicago;41.883229;-87.632398;009;000058
000019;Chula Vista;32.6400705;-117.084042;009;000052
000020;Cincinnati;39.1036974;-84.5136131;009;000074
000021;Cleveland;41.482222;-81.669722;009;000074
000022;Colorado Springs;38.835224;-104.819798;009;000053
000023;Columbus;39.983333;-82.983333;009;000074
000024;Corpus Christi;27.742778;-97.401944;009;000079
000025;Dallas;32.775833;-96.796667;009;000079
000026;Denver;39.742043;-104.991531;009;000053
000027;Detroit;42.3329407;-83.0478365;009;000065
000028;Durham;35.988611;-78.907222;009;000073
000029;El Paso;31.790278;-106.423333;009;000079
000030;Fort Wayne;41.077474;-85.137495;009;000059
000031;Fort Worth;32.749904;-97.330339;009;000079
000032;Fremont;37.548333;-121.988611;009;000052
000033;Fresno;36.731654;-119.785856;009;000052
000034;Garland;32.907222;-96.635278;009;000079
000035;Gilbert;33.35;-111.789167;009;000051
000036;Glendale;33.538558;-112.1837;009;000051
000037;Greensboro;36.08;-79.819444;009;000073
000038;Henderson;36.0292;-115.0253;009;000069
000039;Hialeah;25.860556;-80.293889;009;000054
000040;Honolulu;21.30992;-157.858158;009;000056
000041;Houston;29.762778;-95.383056;009;000079
000042;Indianapolis;39.791;-86.148;009;000059
000043;Irvine;33.669444;-117.823056;009;000052
000044;Irving;32.811667;-96.950833;009;000079
000045;Jacksonville;30.336944;-81.661389;009;000054
000046;Jersey City;40.714;-74.071;009;000070
000047;Kansas City;39.099722;-94.578333;009;000067
000048;Laredo;27.524445;-99.490593;009;000079
000049;Las Vegas;36.1690921;-115.1405767;009;000069
000050;Lexington;38.029722;-84.494722;009;000061
000051;Lincoln;40.813599;-96.70261;009;000068
000052;Long Beach;33.768333;-118.195556;009;000052
000053;Los Angeles;34.052238;-118.243344;009;000052
000054;Louisville;38.25;-85.766667;009;000061
000055;Lubbock;33.566667;-101.883333;009;000079
000056;Madison;43.067;-89.4;009;000082
000057;Memphis;35.117365;-89.971068;009;000078
000058;Mesa;33.4151797;-111.8315;009;000051
000059;Miami;25.775084;-80.194702;009;000054
000060;Milwaukee;43.05;-87.95;009;000082
000061;Minneapolis;44.983333;-93.266667;009;000066
000062;Nashville;36.166667;-86.783333;009;000078
000063;New Orleans;29.9517634;-90.0746168;009;000062
000064;New York;40.730610;-73.935242;009;000072
000065;Newark;40.72422;-74.172574;009;000070
000066;Norfolk;36.850769;-76.285873;009;000080
000067;North Las Vegas;36.19585;-115.114574;009;000069
000068;Oakland;37.804828;-122.27248;009;000052
000069;Oklahoma City;35.482222;-97.535;009;000075
000070;Omaha;41.25;-96;009;000068
000071;Orlando;28.538331;-81.378879;009;000054
000072;Philadelphia;39.95;-75.166667;009;000077
000073;Phoenix;33.45;-112.066667;009;000051
000074;Pittsburgh;40.4421676;-79.9949573;009;000077
000075;Plano;33.019722;-96.699167;009;000079
000076;Portland;45.52;-122.681944;009;000076
000077;Raleigh;35.780556;-78.638889;009;000073
000078;Reno;39.527222;-119.821944;009;000069
000079;Richmond;37.540759;-77.433932;009;000080
000080;Riverside;33.946484;-117.383171;009;000052
000081;Sacramento;38.555556;-121.468889;009;000052
000082;San Antonio;29.416667;-98.5;009;000079
000083;San Bernardino;34.1;-117.3;009;000052
000084;San Diego;32.715;-117.1625;009;000052
000085;San Francisco;37.7272; -123.032;009;000052
000086;San Jose;37.333333;-121.9;009;000052
000087;Santa Ana;33.740833;-117.881389;009;000052
000088;Scottsdale;33.5;-111.933333;009;000051
000089;Seattle;47.603229;-122.33028;009;000081
000090;St. Louis;38.627003;-90.199402;009;000067
000091;St. Paul;44.943719;-93.094281;009;000066
000092;St. Petersburg;27.773056;-82.64;009;000054
000093;Stockton;37.957541;-121.292451;009;000052
000094;Tampa;27.947423;-82.458776;009;000054
000095;Toledo;41.665556;-83.575278;009;000074
000096;Tucson;32.221667;-110.926389;009;000051
000097;Tulsa;36.131389;-95.937222;009;000075
000098;Virginia Beach;36.86314;-76.015778;009;000080
000099;Wichita;37.688889;-97.336111;009;000060
000100;Winston-Salem;36.102764;-80.260492;009;000073
000101;Rio Branco;-9.9738648;-67.8075414;001;000001
000102;Maceió;-9.6652242;-35.7357122;001;000002
000103;Arapiraca;-9.751944;-36.660833;001;000002
000104;Macapa;0.0344566;-51.0666;001;000003
000105;Manaus;-3.1063916;-60.0262934;001;000004
000106;Salvador;-12.974722;-38.476667;001;000005
000107;Feira de Santana;-12.2545287;-38.9543172;001;000005
000108;Vitória da Conquista;-14.8649658;-40.8371991;001;000005
000109;Camaçari;-12.6975;-38.324167;001;000005
000110;Itabuna;-14.7897545;-39.2939612;001;000005
000111;Juazeiro;-9.4312475;-40.5050271;001;000005
000112;Lauro de Freitas;-12.893889;-38.326944;001;000005
000113;Ilhéus;-14.788889;-39.048889;001;000005
000114;Jequié;-13.850833;-40.081111;001;000005
000115;Teixeira de Freitas;-17.538733;-39.743783;001;000005
000116;Alagoinhas;-12.1368661;-38.4237471;001;000005
000117;Barreiras;-12.1479644;-44.9954764;001;000005
000118;Porto Seguro;-16.4508765;-39.0643332;001;000005
000119;Fortaleza;-3.718333;-38.542778;001;000006
000120;Caucaia;-3.734536;-38.656324;001;000006
000121;Juazeiro do Norte;-7.2;-39.333333;001;000006
000122;Maracanaú;-3.866667;-38.633333;001;000006
000123;Sobral;-3.673889;-40.238889;001;000006
000124;Brasília;-15.7793842;-47.9257379;001;000007
000125;Serra;-20.12889;-40.30778;001;000008
000126;Vila Velha;-20.3368375;-40.2919277;001;000008
000127;Cariacica;-20.2660041;-40.4217957;001;000008
000128;Vitória;-20.318889;-40.337778;001;000008
000129;Cachoeiro de Itapemirim;-20.84889;-41.11278;001;000008
000130;Linhares;-19.3730328;-40.054684;001;000008
000131;Goiânia;-16.6805153;-49.2561268;001;000009
000132;Aparecida de Goiânia;-16.822778;-49.225556;001;000009
000133;Anápolis;-16.3274006;-48.953322;001;000009
000134;Rio Verde;-17.790278;-50.918333;001;000009
000135;Luziânia;-16.2582454;-47.9352391;001;000009
000136;Águas Lindas de Goiás;-15.754444;-48.281944;001;000009
000137;Valparaíso de Goiás;-16.068611;-47.976389;001;000009
000138;São Luís;-2.529451;-44.296947;001;000010
000139;Imperatriz;-5.533333;-47.483333;001;000010
000140;São José de Ribamar;-2.5631672;-44.0558076;001;000010
000141;Timon;-5.0936585;-42.8358643;001;000010
000142;Caxias;-4.8623506;-43.3637215;001;000010
000143;Cuiabá;-15.5951004;-56.0922649;001;000011
000144;Várzea Grande;-15.65;-56.133333;001;000011
000145;Rondonópolis;-16.466667;-54.633333;001;000011
000146;Campo Grande;-20.462222;-54.611111;001;000012
000147;Dourados;-22.220833;-54.805833;001;000012
000148;Belo Horizonte;-19.9181771;-43.9370534;001;000013
000149;Uberlândia;-18.923056;-48.288611;001;000013
000150;Contagem;-19.931944;-44.053889;001;000013
000151;Juiz de Fora;-21.761944;-43.349444;001;000013
000152;Betim;-19.967279;-44.198692;001;000013
000153;Montes Claros;-16.73688;-43.8653725;001;000013
000154;Ribeirão das Neves;-19.766944;-44.086944;001;000013
000155;Uberaba;-19.7500327;-47.9319445;001;000013
000156;Governador Valadares;-18.85;-41.933333;001;000013
000157;Ipatinga;-19.5;-42.533333;001;000013
000158;Sete Lagoas;-19.465833;-44.246944;001;000013
000159;Divinópolis;-20.1393735;-44.8869936;001;000013
000160;Santa Luzia;-19.77;-43.850556;001;000013
000161;Ibirité;-20.02194;-44.05889;001;000013
000162;Poços de Caldas;-21.7884221;-46.5627235;001;000013
000163;Patos de Minas;-18.5792498;-46.5185883;001;000013
000164;Pouso Alegre;-22.228056;-45.933611;001;000013
000165;Belém;-1.455833;-48.503889;001;000014
000166;Ananindeua;-1.366392;-48.3722058;001;000014
000167;Santarém;-2.43;-54.72;001;000014
000168;Marabá;-5.35;-49.116667;001;000014
000169;Castanhal;-1.296944;-47.921944;001;000014
000170;Parauapebas;-6.067778;-49.901944;001;000014
000171;Abaetetuba;-1.725092;-48.8899404;001;000014
000172;João Pessoa;-6.2602045;-38.4435417;001;000015
000173;Campina Grande;-7.2309499;-35.8818939;001;000015
000174;Curitiba;-25.4283563;-49.2732515;001;000016
000175;Londrina;-23.31;-51.162778;001;000016
000176;Maringá;-23.4273197;-51.9369606;001;000016
000177;Ponta Grossa;-25.099444;-50.158333;001;000016
000178;Cascavel;-24.9585109;-53.4579483;001;000016
000179;São José dos Pinhais;-25.5326509;-49.0889425;001;000016
000180;Foz do Iguaçu;-25.546897;-54.588171;001;000016
000181;Colombo;-25.2928657;-49.2234755;007;000016
000182;Guarapuava;-25.383333;-51.45;001;000016
000183;Paranaguá;-25.520833;-48.509444;001;000016
000184;Recife;-8.0551894;-34.871176;001;000017
000185;Jaboatão dos Guararapes;-8.112222;-35.01603;001;000017
000186;Olinda;-8;-34.883333;001;000017
000187;Caruaru;-8.282778;-35.975833;001;000017
000188;Petrolina;-9.3791814;-40.512396;001;000017
000189;Paulista;-7.940833;-34.872778;001;000017
000190;Cabo de Santo Agostinho;-8.287369;-35.035105;001;000017
000191;Camaragibe;-8.0251962;-34.9813798;001;000017
000192;Teresina;-5.0879258;-42.8009765;001;000018
000193;Parnaíba;-2.9034964;-41.7753984;001;000018
000194;Rio de Janeiro;-22.9014475;-43.1789159;001;000019
000195;São Gonçalo;-22.826944;-43.053889;001;000019
000196;Duque de Caxias;-22.785948;-43.3131828;001;000019
000197;Nova Iguaçu;-22.7597835;-43.45151;001;000019
000198;Niterói;-22.8898227;-43.1220775;001;000019
000199;Campos dos Goytacazes;-21.7545269;-41.3246064;001;000019
000200;Belford Roxo;-22.763889;-43.398889;001;000019
000201;São João de Meriti;-22.8038505;-43.3726298;001;000019
000202;Petrópolis;-22.505;-43.178889;001;000019
000203;Volta Redonda;-22.522778;-44.103889;001;000019
000204;Magé;-22.652778;-43.040833;001;000019
000205;Macaé;-22.370833;-41.786944;001;000019
000206;Itaboraí;-22.7449634;-42.8591085;001;000019
000207;Cabo Frio;-22.878683;-42.019875;001;000019
000208;Angra dos Reis;-23.0100277;-44.3186537;001;000019
000209;Nova Friburgo;-22.2891837;-42.5345547;001;000019
000210;Barra Mansa;-22.543889;-44.170833;001;000019
000211;Teresópolis;-22.4122633;-42.9664044;001;000019
000212;Mesquita;-22.781944;-43.428889;001;000019
000213;Nilópolis;-22.807778;-43.413889;001;000019
000214;Maricá;-22.918889;-42.818889;001;000019
000215;Queimados;-22.7164052;-43.5553668;001;000019
000216;Natal;-5.783333;-35.2;001;000020
000217;Mossoró;-5.187778;-37.343889;001;000020
000218;Parnamirim;-5.9194102;-35.2675198;001;000020
000219;Porto Alegre;-30.027679;-51.2286404;001;000021
000220;Caxias do Sul;-29.166667;-51.183333;001;000021
000221;Pelotas;-31.7466131;-52.3353928;001;000021
000222;Canoas;-29.92;-51.18;001;000021
000223;Santa Maria;-29.683333;-53.8;001;000021
000224;Gravataí;-29.9437643;-50.9935619;001;000021
000225;Viamão;-30.0811596;-51.0239641;001;000021
000226;Novo Hamburgo;-29.6869327;-51.1275459;001;000021
000227;São Leopoldo;-29.76;-51.146944;001;000021
000228;Rio Grande;-32.0332;-52.0986;001;000021
000229;Alvorada;-29.9988757;-51.076248;001;000021
000230;Passo Fundo;-28.2623536;-52.408987;001;000021
000231;Porto Velho;-8.7610724;-63.8859771;001;000022
000232;Boa Vista;2.8192275;-60.6706554;001;000023
000233;Joinville;-26.3204;-48.8437;001;000024
000234;Florianópolis;-27.5935;-48.55854;001;000024
000235;Blumenau;-26.9189417;-49.0660575;001;000024
000236;São José;-27.6157715;-48.6279547;001;000024
000237;Criciúma;-28.678297;-49.370396;001;000024
000238;Chapecó;-27.0952243;-52.6181683;001;000024
000239;Itajaí;-26.9;-48.666667;001;000024
000240;Jaraguá do Sul;-26.4850248;-49.0667688;001;000024
000241;Lages;-27.81648;-50.3267776;001;000024
000242;Palhoça;-27.644444;-48.667778;001;000024
000243;São Paulo;-23.5486657;-46.6382522;001;000025
000244;Guarulhos;-23.466667;-46.533333;001;000025
000245;Campinas;-22.900914;-47.057294;001;000025
000246;São Bernardo do Campo;-23.694445;-46.565796;001;000025
000247;Santo André;-23.6667259;-46.5323593;001;000025
000248;Osasco;-23.5315745;-46.7898879;001;000025
000249;São José dos Campos;-23.1791361;-45.8872353;001;000025
000250;Ribeirão Preto;-21.178333;-47.806667;001;000025
000251;Sorocaba;-23.501667;-47.458056;001;000025
000252;Mauá;-23.667778;-46.460833;001;000025
000253;São José do Rio Preto;-20.8108698;-49.3791295;001;000025
000254;Santos;-23.9562885;-46.3264601;001;000025
000255;Mogi das Cruzes;-23.5254424;-46.1870725;001;000025
000256;Diadema;-23.686111;-46.610556;001;000025
000257;Jundiaí;-23.187081;-46.884048;001;000025
000258;Carapicuíba;-23.52264;-46.836839;001;000025
000259;Piracicaba;-22.724976;-47.6476;001;000025
000260;Bauru;-22.314722;-49.060556;001;000025
000261;São Vicente;-23.963333;-46.392222;001;000025
000262;Itaquaquecetuba;-23.486389;-46.348611;001;000025
000263;Franca;-20.538611;-47.400833;001;000025
000264;Guarujá;-23.993611;-46.256389;001;000025
000265;Taubaté;-23.030587;-45.5486046;001;000025
000266;Limeira;-22.5630232;-47.4047101;001;000025
000267;Praia Grande;-23.9988945;-46.4135444;001;000025
000268;Suzano;-23.5410069;-46.3105336;001;000025
000269;Taboão da Serra;-23.6075269;-46.7529597;001;000025
000270;Sumaré;-22.82194;-47.26694;001;000025
000271;Barueri;-23.5115171;-46.8759588;001;000025
000272;Embu das Artes;-23.648889;-46.851944;001;000025
000273;São Carlos;-22.0167169;-47.8919709;001;000025
000274;Marília;-22.2203399;-49.9481958;001;000025
000275;Americana;-22.738611;-47.331111;001;000025
000276;Indaiatuba;-23.090278;-47.218056;001;000025
000277;Cotia;-23.604167;-46.919444;001;000025
000278;Jacareí;-23.30528;-45.96583;001;000025
000279;Araraquara;-21.794722;-48.176111;001;000025
000280;Presidente Prudente;-22.125556;-51.388889;001;000025
000281;Itapevi;-23.5491898;-46.9373303;001;000025
000282;Hortolândia;-22.858333;-47.22;001;000025
000283;Rio Claro;-22.4074609;-47.5655179;001;000025
000284;Araçatuba;-21.2109137;-50.4259918;001;000025
000285;Santa Bárbara d'Oeste;-22.754444;-47.414167;001;000025
000286;Ferraz de Vasconcelos;-23.5405399;-46.3692266;001;000025
000287;Francisco Morato;-23.281667;-46.7425;001;000025
000288;Itu;-23.265697;-47.299124;001;000025
000289;Itapecerica da Serra;-23.717222;-46.849444;001;000025
000290;Pindamonhangaba;-22.923487;-45.459842;001;000025
000291;Bragança Paulista;-22.918889;-46.5425;001;000025
000292;São Caetano do Sul;-23.622657;-46.548856;001;000025
000293;Itapetininga;-23.5905428;-48.0534686;001;000025
000294;Mogi Guaçu;-22.371944;-46.941944;001;000025
000295;Franco da Rocha;-23.3255303;-46.7241035;001;000025
000296;Jaú;-22.29639;-48.55778;001;000025
000297;Aracaju;-10.9167;-37.05;001;000026
000298;Nossa Senhora do Socorro;-10.8458667;-37.0746955;001;000026
000299;Palmas;-10.1845063;-48.3346604;001;000027
000300;Araguaína;-7.190833;-48.206944;001;000027
000301;Toronto;43.6518927;-79.381713;002;000031
000302;Ottawa;45.4204213;-75.6924321;002;000031
000303;Vancouver;49.2635657;-123.1385715;002;000029
000304;Kitchener-Waterloo;43.467;-80.5;002;000031
000305;Montreal;45.509062;-73.553363;002;000032
000306;Calgary;51.047306;-114.05797;002;000028
000307;Victoria;48.4275;-123.367259;002;000029
000308;Halifax;44.646244;-63.573566;002;000030
000309;Quebec City;46.8141835;-71.2074252;002;000032
000310;Hamilton;43.25;-79.866667;002;000031
000311;Dublin;53.3440956;-6.2674862;005;000048
000312;Cork;51.897222;-8.47;005;000047
000313;Munich;48.1391264;11.5802189;004;000034
000314;Erlangen;49.599937;11.0063;004;000034
000315;Stuttgart;48.783333;9.183333;004;000033
000316;Düsseldorf;51.224956;6.7756691;004;000037
000317;Heidelberg;49.4019172;8.6802997;004;000033
000318;Cologne;50.940533;6.9599054;004;000037
000319;Regensburg;49.013432;12.101624;004;000034
000320;Hamburg;53.551086;9.993682;004;000036
000321;Karlsruhe;49.00921;8.403951;004;000033
000322;Ulm;48.4;9.983333;004;000033
000323;Bonn;50.7327045;7.0963113;004;000037
000324;Nuremberg;49.45052;11.08048;004;000034
000325;Münster;51.964711;7.628496;004;000037
000326;Dresden;51.033333;13.733333;004;000038
000327;Leipzig;51.3396926;12.3713561;004;000038
000328;Berlin;52.520008;13.404954;004;000035
000329;Lille;50.6312858;3.0627527;003;000039
000330;Bordeaux;44.8349955;-0.5754952;003;000040
000331;Cambridge;52.205;0.119;008;000041
000332;London;51.5001524;-0.1262362;008;000041
000333;Manchester;53.4807125;-2.2343765;008;000041
000334;Edinburgh;55.9501927;-3.1875526;008;000043
000335;Bristol;51.454514;-2.587910;008;000041
000336;Birmingham;52.4828994;-1.8934623;009;000041
000337;Leeds;53.799722;-1.549167;008;000041
000338;Belfast;54.5972686;-5.9301088;008;000042
000339;Lisbon;38.7071;-9.13549;006;000045
000340;Amadora;38.733333;-9.233333;006;000045
000341;Porto;41.1501526;-8.610318;006;000046
000342;Braga;41.5517605;-8.4229034;006;000044
